{"item":[{"department":[{"location":"220室","job":"公文审核","telephone":"88492164","name":"文秘科"},{"location":"215室","job":"OA系统管理、信息公开、门户信息审核、电子屏管理（电子屏分布：友谊校区-角楼、健翔楼、南苑、西苑；长安校区-数字化大楼、云天苑）","telephone":"88493052","name":"信息科"},{"location":"226室","job":"机要收发","telephone":"88492407","name":"机要室"},{"location":"217室","job":"校务协调、校务接待","telephone":"88491769","name":"综合科"},{"location":"218室","job":"信访、督办管理","telephone":"88493360","name":"督办科"},{"location":"121室","job":"印信管理","telephone":"88493361","name":"行政科"},{"location":"216室","job":"公章刻制申请","telephone":"88491911","name":"行政科"},{"location":"216室","job":"校园邮差服务","telephone":"友谊校区 88492179","name":"行政科"},{"location":"数字化大楼一站式服务大厅","job":"校园邮差服务","telephone":"长安校区 88430010","name":"行政科"},{"location":"217室","job":"学术委员会相关工作","telephone":"88494658","name":"学术委员会办公室"},{"location":"218室","job":"安全生产相关工作","telephone":"88493360","name":"安全委员会办公室"}],"location":"友谊校区学校办公楼A座1楼、2楼联系电话：88491911","name":"学校办公室 "},{"department":[{"location":"133室","job":"干部因私出国（境）手续、干部因私出国（境）证件的管理、教职工党员党组织关系转接手续","telephone":"88491644","name":"办公室"},{"location":"135室","job":"干部教育培训、党校日常工作","telephone":"88460571","name":"办公室"},{"location":"135室","job":"基层党建工作","telephone":"88495685","name":"办公室"},{"location":"124室","job":"干部管理、监督、考核","telephone":"88494106","name":"办公室"},{"location":"124室","job":"干部档案管理","telephone":"88460831","name":"办公室"}],"location":"友谊校区学校办公楼A座1楼联系电话：88491644","name":"党委组织部（党校） "},{"department":[{"location":"学校办公楼 A座310、 311室","job":"《西北工大报》编辑采写","telephone":"88460632","name":"校报编辑部"},{"location":"学校办公楼 A座311室","job":"网络舆情管理","telephone":"88460601","name":"舆情管理"},{"location":"勇字楼 12楼 勇字楼5楼","job":"电视新闻报道、专题视频制作、新闻摄影","telephone":"88493780 88492241","name":"校电视台"},{"location":"学校办公楼 A座307室","job":"学校主页、新闻网","telephone":"88460735","name":"网络宣传教育室"},{"location":"学校办公楼 A座308室","job":"新媒体宣传管理","telephone":"88494623","name":"新媒体宣传办公室"},{"location":"老图书馆 405、406室","job":"陕西大学生在线网站专项工作","telephone":"88494223","name":"陕西大学生在线"},{"location":"学校办公楼 A座315室","job":"思政教育、理论学习","telephone":"88494395","name":"思想政治工作研究室"},{"location":"学校办公楼 A座315室","job":"两校区横幅、背板管理，长安校区翱翔学生活动中心、星天苑南北餐厅电子屏管理","telephone":"88494395","name":"校园文化建设办公室"},{"location":"学校办公楼 A座309室","job":"报刊征订及党委宣传部印章、日常事务管理工作","telephone":"88460638","name":"办公室"}],"location":"友谊校区学校办公楼A座3楼、勇字楼12楼联系电话：88460638","name":"党委宣传部 "},{"department":[{"location":"317室","job":"负责各民主党派、党外代表人士、统战团体以及民族宗教工作","telephone":"88491979","name":"办公室"}],"location":"友谊校区学校办公楼A座3楼联系电话：88491979","name":"党委统战部 "},{"department":[{"location":"305室","job":"办公室日常业务","telephone":"88493708","name":"办公室"}],"location":"友谊校区学校办公楼A座3楼联系电话：88493708","name":"纪委办公室（监察处） "},{"department":[{"location":"启真楼3楼 41室","job":"行政、人事工作；财务预算、日常经费管理；专兼职学生辅导员选留计划的制定实施；对外联络及接待、部门工作协调、办公自动化系统管理及门户信息发布；公文公章管理；D100报告厅审批管理","telephone":"长安校区 88430680","name":"综合办公室"},{"location":"启真楼3楼 41室","job":"学生思政教育;本科生党建； “追梦班”人才培养和管理；开学典礼、毕业庆典的策划、组织、实施工作","telephone":"长安校区 88430700","name":"本科生教育办公室"},{"location":"爱生楼2楼中厅","job":"学生安全管理；宿舍管理；寒暑假火车票订购、火车票磁条充磁与更换","telephone":"友谊校区 88494028","name":"本科生管理办公室"},{"location":"启真楼3楼 41室","job":"学生安全管理；宿舍管理；寒暑假火车票订购、火车票磁条充磁与更换","telephone":"长安校区 88430701","name":"本科生管理办公室"},{"location":"爱生楼2楼中厅","job":"奖学金、助学金；勤工助学；生源地贷款；贷款偿还；信息化建设；学生处官网、官微管理","telephone":"友谊校区 88494043","name":"学生资助服务中心"},{"location":"启真楼3楼 41室","job":"奖学金、助学金；勤工助学；生源地贷款；贷款偿还；信息化建设；学生处官网、官微管理","telephone":"长安校区 88430702","name":"学生资助服务中心"},{"location":"启真楼3楼 41室","job":"“拥军拥属”、“拥政爱民”工作；学生军训；军事理论课教学；大学生兵役登记和入伍预征；指导学生军事爱好者社团","telephone":"长安校区 88430703","name":"人民武装部"},{"location":"爱生楼 201室","job":"就业计划编制；签约管理；就业情况统计；本科生录研","telephone":"友谊校区 88494728","name":"学生就业创业指导"},{"location":"","job":"调档；毕业派遣；毕业生户、档转出；招聘咨询查询与服务；招聘信息发布；招聘会场地预约和管理；学生就业志愿者服务队管理","telephone":"88492274","name":"服务中心"},{"location":"启真楼3楼 42室","job":"调档；毕业派遣；毕业生户、档转出；招聘咨询查询与服务；招聘信息发布；招聘会场地预约和管理；学生就业志愿者服务队管理","telephone":"长安校区 88430695","name":"服务中心"},{"location":"启真楼3楼 42室","job":"职业生涯规划与就业指导课程、学生职业发展与就业指导团体与个体咨询、校内职业生涯规划与就业指导工作人员管理、指导职业生涯发展协会等学生社团","telephone":"长安校区 88430705","name":"服务中心"},{"location":"毅字楼 229室","job":"全校性的心理健康教育和宣传活动、心理健康教育教学","telephone":"友谊校区 88492518","name":"心理健康中心"},{"location":"翱翔学生活动中心 237室","job":"全校性的心理健康教育和宣传活动、心理健康教育教学","telephone":"长安校区 88430190","name":"心理健康中心"}],"location":"长安校区启真楼3楼友谊校区爱生楼2楼联系电话：88430680","name":"党委学生工作部（学生处、人民武装部） "},{"department":[{"location":"启真楼3楼 69室","job":"研究生日常管理","telephone":"88430693","name":"党委研究生工作部"},{"location":"启真楼3楼 69室","job":"研究生奖助管理","telephone":"88430692","name":"党委研究生工作部"},{"location":"启真楼3楼 69室","job":"创新创业教育","telephone":"88430687","name":"党委研究生工作部"},{"location":"爱生楼 401室","job":"友谊校区值班点","telephone":"88460636","name":"党委研究生工作部"}],"location":"长安校区启真楼3楼友谊校区爱生楼401室联系电话：88430691","name":"党委研究生工作部 "},{"department":[{"location":"131室","job":"机关党建工作（党员发展审批、组织关系接转、党费收缴）；机关思想政治工作；机关作风建设；机关部门工会工作","telephone":"88495920","name":"办公室"}],"location":"友谊校区学校办公楼A座1楼联系电话：88495920","name":"机关党委 "},{"department":[{"location":"305室","job":"工会日常工作、扶贫工作、女工工作、福利工作等","telephone":"88492256","name":"办公室"},{"location":"306室","job":"民主管理、教代会、师德师风、评选表彰等","telephone":"88494341","name":"组织民主管理部"},{"location":"307室","job":"青年教师工作、文体活动、宣传工作等","telephone":"88492466","name":"青工文体宣传部"},{"location":"303室","job":"健翔楼管理、会员入会工作","telephone":"88494345","name":"活动中心管理办公室"}],"location":"友谊校区健翔楼3楼联系电话：88492256","name":"工会 "},{"department":[{"location":"43室","job":"团委日常事务管理工作","telephone":"88430890","name":"办公室"},{"location":"43室","job":"团费缴纳、团员证补办、团籍管理、团组织关系转接","telephone":"88430887","name":"组织部"},{"location":"43室","job":"团学活动场地和团属活动场馆审批","telephone":"88430887","name":"文体部"}],"location":"长安校区启真楼3楼联系电话：88430887","name":"团委 "},{"department":[{"location":"健翔楼2楼","job":"党务、行政事务协调及信访接待","telephone":"88495442","name":"办公室"},{"location":"健翔楼2楼","job":"老干部管理","telephone":"88492249","name":"老干科"},{"location":"健翔楼2楼","job":"退休人员管理","telephone":"88493260 88491023","name":"退休科"},{"location":"健翔楼2楼","job":"老年大学管理","telephone":"88494403","name":"老年大学"},{"location":"健翔楼2楼","job":"红枫叶社团管理","telephone":"88491312","name":"社团中心"}],"location":"友谊校区健翔楼2楼联系电话：88495442","name":"离退休党委（离退休工作处） "},{"department":[{"job":"社区办公室工作;社区人事管理;新闻宣传工作;党支部日常工作;人大、政协工作;纪律监察工作;财、物管理工作;社区服务项目组织和申报","telephone":"88460841","name":"综合服务部"},{"job":"低保和社会救助工作、居民医保工作、居民老龄工作、残疾人工作、外单位退休居民管理服务、计生工作、就业失业工作","telephone":"88462409 88491953","name":"社会保障部"},{"job":"思想宣传教育工作;普法宣传和科普工作;社区工会、妇联、共青团工作;经济普查工作;治污减霾工作;志愿者工作","telephone":"88492148","name":"经济和文化服务部"},{"job":"社区综合治理工作、维稳工作、环境卫生监督工作、自行车棚管理、居民矛盾调解、流动人口服务、“三官一律”进社区工作、住宅区网格化管理","telephone":"88491953","name":"综合治理部"}],"location":"友谊校区爱生楼（北）3楼联系电话：88492409","name":"社区居民委员会 "},{"department":[{"location":"116室","job":"人事、行政、财务、资产、接待及档案资料管理等","telephone":"88492224","name":"综合办公室"},{"location":"111室","job":"国家及省部统筹支持一流大学、一流学科项目及各种重大专项建设项目管理","telephone":"88495968","name":"重大项目办公室"},{"location":"110室","job":"校园规划；国拨资金基本建设项目立项、计划管理；中央高校改善基本办学条件专项资金项目管理","telephone":"88494358","name":"校园规划办公室"},{"location":"122室","job":"校际、校地、校企、海外合作；异地研究院筹建；处网站及信息科管理","telephone":"88460891","name":"对外合作办公室"},{"location":"109室","job":"发展战略研究、发展规划编制等","telephone":"88493540","name":"战略规划研究室"},{"location":"123室","job":"政策与战略研究基金管理、综合改革推进","telephone":"88460240","name":"战略规划研究室"},{"location":"107室","job":"综合统计","telephone":"88460730","name":"战略规划研究室"}],"location":"友谊校区学校办公楼A座1楼联系电话：88492224","name":"发展规划处 "},{"department":[{"location":"80室","job":"研究生院日常管理","telephone":"88430620","name":"综合办公室"},{"location":"73、74室","job":"硕士、博士研究生招生工作","telephone":"88430614 88430615","name":"招生办公室"},{"location":"77、78室","job":"硕士、博士研究生培养工作","telephone":"88430610 88430611","name":"培养办公室"},{"location":"75室","job":"硕士、博士学位工作","telephone":"88430612 88430613","name":"学位办公室"},{"location":"76室","job":"研究生质量保障监制管理及信息化建设工作","telephone":"88430623 88430624","name":"质量办公室"},{"location":"79室","job":"研究生国际交流及合作培养工作","telephone":"88430631","name":"国际交流办公室"},{"location":"72室","job":"学科建设与评估工作","telephone":"88430625 88430630 88430634","name":"学科建设办公室"}],"location":"长安校区启真楼3楼联系电话：88430620","name":"研究生院(学科建设办公室) "},{"department":[{"location":"老图书馆 217室","job":"教学培训与研究、教学咨询与服务、教师管理","telephone":"88493056 88494152 88460737","name":"教师教学发展中心"},{"location":"研究生东馆 321室","job":"本科生招生业务","telephone":"88492310","name":"招生办公室"},{"location":"启真楼3楼 66、67室","job":"教学运行管理","telephone":"88430585","name":"学生注册中心"},{"location":"学生注册大厅学业指导室长安校区 教学东楼D座 104、106室 友谊校区诚字楼 114、119室","job":"学生学业指导","telephone":"88430588","name":"学生注册中心"},{"location":"启真楼3楼 64室","job":"本科实习、创新实践、学科竞赛、实验室管理、毕业设计","telephone":"88430589","name":"实践教学办公室"},{"location":"启真楼3楼 62、63室","job":"协调、接待、教学质量监控","telephone":"88430586 88430582","name":"综合质量办公室"},{"location":"启真楼3楼 65室","job":"专业建设、培养方案、课程管理与建设、教改规划与立项、教学成果培养与评审、教指委、教学委员会秘书工作","telephone":"88430587","name":"教学规划与管理办公室"},{"location":"启真楼3楼 68室","job":"学生证、成绩、学籍及学历管理；转学、转专业管理；免试研究生推荐","telephone":"88430583 88430584","name":"教学办公室"}],"location":"长安校区启真楼3楼友谊校区研究生东馆3楼老图书馆2楼联系电话：88430586","name":"教务处 "},{"department":[{"location":"317室","job":"科技类基金受理和过程管理","telephone":"88493027","name":"基础研究办公室"},{"location":"314室","job":"人文社科类基金受理和过程管理、基本科研业务费办公室具体工作","telephone":"88460720","name":"人文社科办公室 基本科研业务费管理办公室"},{"location":"314室","job":"国际科技合作项目受理和管理","telephone":"88495935","name":"国际科技合作办公室"}],"location":"友谊校区学校办公楼B座3楼联系电话：88494377","name":"科学技术管理部 基础研究与文科处 "},{"department":[{"location":"306室","job":"ZZ及各JBZ军工科研项目的策划争取和管理","telephone":"88494118","name":"装备创新办公室"},{"location":"306室","job":"863计划、航空基金等项目的全过程管理","telephone":"88494160","name":"装备创新办公室"},{"location":"306室","job":"学校认定的重大项目全过程管理、型号项目管理、全校配套科研管理项目和重大专项过程管理","telephone":"88494126","name":"重大项目办公室"},{"location":"304室","job":"国家部委类国防科研项目及有关国家专项过程管理","telephone":"88492339","name":"国防基础办公室"},{"location":"304室","job":"国家部委国防科研项目和航天集团基金日常管理","telephone":"88491661","name":"国防基础办公室"}],"location":"友谊校区学校办公楼B座3楼联系电话：88494377","name":"科学技术管理部 军工科研处 "},{"department":[{"location":"329室","job":"负责科技部国家科技计划项目（含国家重点研发计划、民口重大专项等）、工信部行业科研计划项目（含民机科研、两机专项基础研究等）的组织策划及过程管理","telephone":"88495527","name":"高新办公室"},{"location":"319室","job":"负责省市区科技计划项目的组织策划及过程管理；负责重大产学研合作项目的组织策划以及学校与地方政府、民口企业的科技合作；负责学校科技成果的推介与展示；负责“协同创新中心”的培育组建、批准认定和管理","telephone":"88492232","name":"产学研合作 （协同创新）办公室"},{"location":"328室","job":"负责学校的知识产权管理，包括专利、软件著作权和集成电路布图设计的审批、登记、管理及资助奖励，以及知识产权战略布局和宣传教育；负责学校科技成果推广转化，包括知识产权的转让、实施许可和作价投资；负责学校知识产权信息化建设","telephone":"88492338","name":"知识产权办公室"},{"location":"327室","job":"负责国家级、省部级等政府部门科技奖励以及部分社会力量科技奖励的组织推荐和申报工作；各类科技成果的鉴定、评价和登记工作；科技奖励相关的专家库推荐","telephone":"88460723","name":"成果管理办公室"}],"location":"友谊校区学校办公楼B座3楼联系电话：88494377","name":"科学技术管理部 高新技术处 "},{"department":[{"location":"307室","job":"科研平台办各项工作；各级重点实验室和各类工程中心的建设管理","telephone":"88492142","name":"科研平台办公室"},{"location":"307室","job":"大型仪器设备开放共享管理工作","telephone":"88460561","name":"科研平台办公室"},{"location":"305室","job":"条件保障办各项工作；建项目的过程管理、协助条保项目规划与争取","telephone":"88494128","name":"条件保障办公室"},{"location":"303室","job":"学校“武器装备科研生产许可”和“装备承制单位资格”相关工作的组织策划与实施","telephone":"88460401","name":"质量、检验、军工资质、科研计量管理办公室"},{"location":"303室","job":"学校武器装备质量管理体系相关工作的组织策划与实施","telephone":"88494125","name":"质量、检验、军工资质、科研计量管理办公室"}],"location":"","name":"科研保障处 "},{"department":[{"location":"324室","job":"部工作计划、总结、人事管理、大型会议组织策划，信息化工作，部保密工作等","telephone":"88460721","name":"部办公室"},{"location":"325室","job":"合同免税认定登记、文件收发、文件复印，行政用印管理，校内职能部门对接等","telephone":"88491614","name":"部办公室"},{"location":"323室","job":"审批/签订学校科研技术合同、科研外协合同、科技合作协议，审批科技计划任务书等，工会、支部建设等","telephone":"88460629","name":"合同办公室信息化办公室"},{"location":"323室","job":"项目添加、合同用印、代签合同集中处理、查询经费编号、项目结题结算、科技统计等","telephone":"88494377","name":"合同办公室信息化办公室"},{"location":"勇字楼10楼1008室","job":"学术交流、学会的组织及日常管理、科协的相关联络管理、科协系统奖项的推荐与申报","telephone":"88460631","name":"学术交流办公室"}],"location":"","name":"科研综合管理中心 "},{"department":[{"location":"毅字楼724室","job":"办公室;教师出国 （境）审批、证照","telephone":"88492267","name":"综合科"},{"location":"毅字楼723室","job":"办公室;教师出国 （境）审批、证照","telephone":"88495355","name":"综合科"},{"location":"毅字楼722室","job":"引智项目、国际会议","telephone":"88492812","name":"专家科"},{"location":"毅字楼720室","job":"学生派出","telephone":"88491264","name":"交流科"},{"location":"毅字楼724室","job":"大学联盟事宜","telephone":"88492267","name":"国际联盟办公室"},{"location":"毅字楼719室","job":"学院日常事务","telephone":"88492721","name":"国际教育学办公室"},{"location":"毅字楼717室","job":"留学生招生工作","telephone":"88494381","name":"留学生招生办公室"},{"location":"毅字楼718室","job":"汉语教学","telephone":"88492984","name":"汉语培训中心"},{"location":"毅字楼715室","job":"友谊校区留学生管理","telephone":"88495735","name":"留学生管理办公室"},{"location":"云天苑F楼 227室","job":"长安校区留学生管理","telephone":"88430910","name":"留学生管理办公室"}],"location":"友谊校区毅字楼7楼长安校区云天苑F楼联系电话：88492267","name":"国际合作处(国际教育学院) "},{"department":[{"location":"330室","job":"印章、公文等综合管理","telephone":"88460219","name":"综合办公室"},{"location":"329室","job":"编制、统计、涉密人员管理","telephone":"88494328","name":"综合办公室"},{"location":"331室","job":"在职职工、非事业编、人才中心管理","telephone":"88492242","name":"职工管理及人才交流办公室"},{"location":"328室","job":"职称及教师日常管理","telephone":"88492416","name":"师资办公室"},{"location":"326室","job":"博士后、出国管理","telephone":"88460733","name":"师资办公室"},{"location":"324室","job":"工资、津贴管理","telephone":"88492720","name":"劳资办公室 （社会保险管理中心）"},{"location":"321室","job":"医疗保险及社保管理","telephone":"88492490","name":"劳资办公室 （社会保险管理中心）"},{"location":"334室","job":"高层次人才管理","telephone":"88495803","name":"高层次人才办公室"},{"location":"332室","job":"高层次人才管理","telephone":"88460620","name":"高层次人才办公室"},{"location":"325室","job":"高层次人才日常服务工作","telephone":"88460799","name":"人才特区服务办公室"}],"location":"学校办公楼A座3楼联系电话：88460219","name":"人事处（党委教师工作部、高层次人才办公室） "},{"department":[{"location":"研究生东馆 409室","job":"综合管理","telephone":"88491367","name":"综合科"},{"location":"研究生东馆 416室","job":"科研立项、发票管理","telephone":"88460404","name":"科研财务科"},{"location":"研究生东馆 419室","job":"预算管理、税务、物价、财务报表","telephone":"88495277","name":"预算科"},{"location":"研究生东馆 417室","job":"预算管理、税务、物价、财务报表","telephone":"88491696","name":"预算科"},{"location":"研究生东馆 404、403室","job":"报销业务","telephone":"友谊校区 88491770 88494397 88494663 88460241","name":"会计科"},{"location":"翱翔学生活动中心1楼","job":"报销业务","telephone":"长安校区 88430877 88430885","name":"会计科"},{"location":"研究生东馆 402室","job":"档案管理","telephone":"友谊校区 88493895","name":"会计科"},{"location":"翱翔学生活动中心1楼","job":"档案管理","telephone":"长安校区 88430880","name":"会计科"},{"location":"研究生东馆 401室","job":"工资、学费、公积金管理","telephone":"88460617 88460740 88493156","name":"工资奖助科"},{"location":"研究生东馆 413室","job":"基建项目管理","telephone":"88495950 88492439","name":"基建财务科"}],"location":"友谊校区研究生东馆4楼长安校区翱翔学生活动中心联系电话：88491367","name":"财务处 "},{"department":[{"location":"510室","job":"综合管理","telephone":"88495056","name":"综合办公室"},{"location":"503室","job":"合同审查、诉讼、法律咨询业务","telephone":"88491128","name":"法律事务办公室"},{"location":"506室","job":"经营性资产管理","telephone":"88492804","name":"经营性资产管理办公室"},{"location":"508室","job":"资产管理、公用房管理","telephone":"88493468 88494515","name":"资产管理办公室"},{"location":"511室","job":"家属房分配管理","telephone":"88492454 88494297","name":"住房改革办公室"},{"location":"512室","job":"安全环保管理","telephone":"88492140","name":"技安环保办公室"}],"location":"友谊校区研究生东馆5楼联系电话：88495056","name":"国有资产管理处 "},{"department":[{"location":"基建处院内 203室","job":"综合协调、督办","telephone":"友谊校区 88492033","name":"办公室"},{"location":"综合楼221室","job":"综合协调、督办","telephone":"长安校区 88430662","name":"办公室"},{"location":"基建处院内平房","job":"合同管理、限额内工程采购","telephone":"友谊校区 88495805 88495893","name":"合同管理科"},{"location":"综合楼209室","job":"合同管理、限额内工程采购","telephone":"长安校区 88430646 88430641-209","name":"合同管理科"},{"location":"基建处院内 101室 102室 103室","job":"友谊校区基本建设项目施工管理","telephone":"友谊校区 88495998 88460576 88465129","name":"友谊校区工程管理科"},{"location":"综合楼 205室 206室 207室 208室 212室","job":"长安校区基本建设项目施工管理","telephone":"长安校区 88430660-205 88430660-206 88430660-207 88430643 88430644","name":"长安校区工程管理科"},{"location":"基建处院内 201室 204室","job":"工程预算、付款","telephone":"友谊校区 88492488 88460578","name":"造价管理科"},{"location":"综合楼 216室 211室","job":"工程预算、付款","telephone":"长安校区 88430645 88430641-211","name":"造价管理科"},{"location":"基建处院内 106室 107室","job":"建设项目初步设计，报建、报验","telephone":"友谊校区 88493630 88460577","name":"前期综合科"},{"location":"综合楼 213室","job":"建设项目初步设计，报建、报验","telephone":"长安校区 88430611","name":"前期综合科"},{"location":"基建处院内平房","job":"维修项目施工管理","telephone":"友谊校区 88495252 88495313","name":"维修管理科"},{"location":"综合楼 204室","job":"维修项目施工管理","telephone":"长安校区 88430660-204","name":"维修管理科"}],"location":"友谊校区基建处院内联系电话：88492033长安校区综合楼2楼联系电话：88430662","name":"基建处"},{"department":[{"location":"105室","job":"财务审计、科研基金结题报告的审签盖章等","telephone":"88492226","name":"财务审计室兼审计处办公室"},{"location":"106室","job":"工程审计","telephone":"88494040","name":"工程审计室"}],"location":"友谊校区学校办公楼A座1楼联系电话：88492226","name":"审计处"},{"department":[{"location":"综合楼411室","job":"政审证明、无犯罪记录证明办理","telephone":"友谊校区 88492284","name":"政秘科"},{"location":"综合楼124室","job":"政审证明、无犯罪记录证明办理","telephone":"长安校区 88430735","name":"政秘科"},{"location":"综合楼409室","job":"消防技防日常管理","telephone":"友谊校区 88492280","name":"消防技防科"},{"location":"综合楼129室","job":"信息化建设、网络安全","telephone":"长安校区 88430733","name":"信息安全科"},{"location":"综合楼410室","job":"友谊校区、长安校区、科技园区安全保卫；校园综合治理","telephone":"友谊校区 88491635","name":"安全保卫办公室"},{"location":"综合楼120室","job":"友谊校区、长安校区、科技园区安全保卫；校园综合治理","telephone":"长安校区 88430736","name":"安全保卫办公室"},{"location":"科技园","job":"友谊校区、长安校区、科技园区安全保卫；校园综合治理","telephone":"科技园 88455110","name":"安全保卫办公室"},{"location":"综合楼403室","job":"学生集体户、教工集体户管理","telephone":"友谊校区 88494447","name":"户籍室"},{"location":"综合楼124室","job":"学生集体户、教工集体户管理","telephone":"长安校区 88430735","name":"户籍室"},{"location":"综合楼407室","job":"交通管理、车辆通行证办理","telephone":"友谊校区 88493716","name":"交通管理办公室"},{"location":"综合楼415室","job":"24小时值班","telephone":"友谊校区 88494110","name":"值班室"},{"location":"综合楼123室","job":"24小时值班","telephone":"长安校区 88430110","name":"值班室"}],"location":"友谊校区综合楼4楼报警电话：88494110长安校区综合楼1楼报警电话：88430110","name":"保卫处 "},{"department":[{"location":"503室","job":"保密日常业务的咨询;保密处印章、保密委员会印章、保密委员办公室印章的使用;领导干部、涉密人员因私出国（境）材料审核;涉密学生资格审核、离校委托;公开发表论文（国内外）保密审查;涉密协作单位监督检查审查备案;外协合同定密、变更审查备案;涉密学位论文申请、审查、评阅答辩聘请专家审查;报奖、申请专利、院士、长江学者等申报材料审核;一级保密资格证书使用申请审核","telephone":"88495913","name":"综合科"},{"location":"505室","job":"涉密信息设备和存储介质的申请、变更、维修、端口管理、报废、销毁等相关业务;涉密计算机安全防护软（硬）件安装、使用、卸载过程中疑难问题解答和维修;受理失泄密事件的举报、查处","telephone":"88493715","name":"技术科"},{"location":"综合楼分中心办公室","job":"涉密信息系统测评及风险评估","telephone":"—","name":"陕西省测评分中心"},{"location":"507室","job":"国家安全日常管理工作","telephone":"88460800","name":"国安办"}],"location":"友谊校区综合楼5楼联系电话：88493297","name":"保密处"},{"department":[{"location":"205室","job":"项目管理","telephone":"88493119","name":"项目管理部"},{"location":"203室","job":"“校友活动周”、校友资料库、校友杂志与媒体宣传、校友分会、校友信息平台建设与管理、校友学生志愿者","telephone":"88460455 88491384","name":"校友工作部"},{"location":"201室","job":"校友接待与服务、“爱心直通车”、办公室综合业务","telephone":"88492542","name":"综合办公室"},{"location":"103室","job":"资金管理、资金运作","telephone":"88493032","name":"财务部"}],"location":"友谊校区东一门阶梯教室联系电话：88492542","name":"校友总会（教育基金会办公室） "},{"department":[{"location":"605室","job":"事务协调、印信管理","telephone":"88491174","name":"综合办公室"},{"location":"603室","job":"信息化建设项目申请和审批","telephone":"88492889","name":"信息化建设办公室"},{"location":"705室","job":"网络建设与管理","telephone":"88495655","name":"网络管理中心"},{"location":"710室","job":"数据中心建设与管理","telephone":"88492886","name":"数据中心"},{"location":"707室","job":"信息化公共平台建设","telephone":"88493092","name":"应用系统中心"},{"location":"106室","job":"多媒体教学技术支持保障","telephone":"88492316","name":"多媒体教学管理部"}],"location":"友谊校区研究生西馆6楼、7楼联系电话：88491174","name":"信息中心 "},{"department":[{"location":"104室","job":"值班、复印室","telephone":"88430088","name":"办公室"},{"location":"106室","job":"会议接待、集中办公大厅服务","telephone":"88430159","name":"办公室"}],"location":"长安校区数字化大楼1楼联系电话：88430153","name":"长安校区管理办公室 "},{"department":[{"location":"学校办公楼 A座322室","job":"对后勤综合服务保障工作进行监管、考核","telephone":"友谊校区 88492571","name":"运行保障科"},{"location":"综合楼 201室","job":"对后勤综合服务保障工作进行监管、考核","telephone":"长安校区 88430853","name":"运行保障科"},{"location":"学校办公楼 A座320室","job":"房屋、基础设施维修及协调工作","telephone":"友谊校区 88493053","name":"修缮科"},{"location":"综合楼 201室","job":"房屋、基础设施维修及协调工作","telephone":"长安校区 88430852","name":"修缮科"}],"location":"友谊校区学校办公楼A座3楼长安校区综合楼2楼联系电话：88492571","name":"后勤办公室 "},{"department":[{"location":"519室","job":"党建、综合协调、印信管理、文字工作等","telephone":"88460760","name":"综合业务"},{"location":"515室","job":"工程类项目公开招标","telephone":"88494919","name":"建设工程招标业务"},{"location":"502室 516室","job":"货物及服务类项目招标采购、合同审签","telephone":"88493786 88460635","name":"货物及服务招标采购业务"}],"location":"友谊校区研究生东馆5楼联系电话：88460760","name":"招标与设备采购中心 "},{"department":[{"location":"319室","job":"印信管理","telephone":"88493671","name":"学院办公室"},{"location":"323室","job":"工会、工程硕士培养、校友会","telephone":"88494925","name":"工会、工程硕士 培养、校友会办公室"},{"location":"319室","job":"人事党务方面工作","telephone":"88460479","name":"人事党务秘书办公室"},{"location":"331室","job":"本科生思想教育、组织、管理","telephone":"88495639","name":"本科生辅导员办公室"},{"location":"331室","job":"研究生思想教育、组织、管理","telephone":"88494455","name":"研究生教导员办公室"},{"location":"315室","job":"科研管理","telephone":"88494299","name":"科研秘书办公室"},{"location":"325室","job":"研究生教学管理","telephone":"88495820","name":"研究生教学秘书办公室"},{"location":"327室","job":"本科生教学管理","telephone":"88460478","name":"本科生教学秘书办公室"},{"location":"315室","job":"保密工作、论文发表审查","telephone":"88494299","name":"保密办公室"},{"location":"315室","job":"大型仪器设备、资产管理","telephone":"88492583","name":"大型仪器设备管理员办公室"}],"location":"友谊校区航空楼A座3楼联系电话：88460479","name":"航空学院 "},{"department":[{"location":"402室","job":"用印管理、出差审批、党务（教职工）工作、人事工作、信息工作、宣传工作、网站维护","telephone":"88492781","name":"学院办公室"},{"location":"402室","job":"用印管理、出差审批、党务（教职工）工作、人事工作、信息工作、宣传工作、网站维护","telephone":"88460431","name":"学院办公室"},{"location":"401室","job":"本科教学、学籍管理工作","telephone":"88494854","name":"教学管理办公室"},{"location":"401室","job":"研究生教学管理、学籍管理、工程硕士培养工作","telephone":"88460301","name":"教学管理办公室"},{"location":"401室","job":"留学生培养管理、国际合作","telephone":"88460892","name":"教学管理办公室"},{"location":"406室","job":"科研管理服务、学术交流、管理工作","telephone":"88492782","name":"科研管理办公室"},{"location":"405室","job":"保密管理工作","telephone":"88460313","name":"科研管理办公室"},{"location":"403室","job":"本科生思想政治教育、学生事务管理、校友分会工作","telephone":"88460728","name":"学生工作办公室"},{"location":"404室","job":"研究生思想政治教育、学生事务管理","telephone":"88460390","name":"学生工作办公室"},{"location":"星天苑","job":"长安校区学生事务管理","telephone":"88430276","name":"学生工作办公室"},{"location":"航天1号 楼501室","job":"创新实践管理、仪器设备共享、安全生产管理、资产管理","telephone":"88495681","name":"航天创新实践中心"}],"location":"友谊校区航天学院4号楼4楼联系电话：88492781","name":"航天学院 "},{"department":[{"location":"211室","job":"行政、党务","telephone":"88492611 88492612","name":"学院办公室"},{"location":"214室","job":"本科教务、国际化","telephone":"88491754","name":"本科教学办公室国际化办公室"},{"location":"206室","job":"研究生教务工作","telephone":"88493770","name":"研究生教学办公室"},{"location":"210室","job":"科研管理","telephone":"88492599","name":"科研办公室"},{"location":"215室","job":"学生工作","telephone":"88494920","name":"学生工作办公室"},{"location":"208室","job":"安全生产、国有资产管理","telephone":"88492378","name":"安全、国资办公室"}],"location":"友谊校区航海大楼2楼联系电话：88492611","name":"航海学院 "},{"department":[{"location":"320室","job":"人事、党务、用印、会议室管理等日常事务","telephone":"88492642","name":"学院办公室"},{"location":"316室","job":"研究生教学工作","telephone":"88494306","name":"研究生教学办公室"},{"location":"321室","job":"本科生教学工作","telephone":"88492641","name":"本科生教学办公室"},{"location":"308室","job":"科研工作","telephone":"88495014","name":"科研办公室"},{"location":"312室","job":"研究生学生工作","telephone":"88492254","name":"教导员办公室"},{"location":"310室","job":"本科生学生工作","telephone":"88460569","name":"辅导员办公室"},{"location":"317室","job":"复印、资料保管","telephone":"88460525","name":"资料室"}],"location":"友谊校区公字楼3楼联系电话：88492642","name":"材料学院 "},{"department":[{"location":"413室","job":"行政、组织管理工作","telephone":"88495297","name":"学院办公室"},{"location":"413室","job":"人事管理工作","telephone":"88460490","name":"学院办公室"},{"location":"413室","job":"科研管理工作","telephone":"88492531","name":"学院办公室"},{"location":"421室","job":"研究生教学管理","telephone":"88492470","name":"研究生教学办公室"},{"location":"423室","job":"研究生思想政治教育管理工作","telephone":"88492994","name":"研究生管理办公室"},{"location":"425室","job":"本科生教学管理工作","telephone":"88491445","name":"本科生教学办公室"},{"location":"425室","job":"国际化工作","telephone":"88494382","name":"国际化教学办公室"},{"location":"429室","job":"本科生思想政治教育管理工作","telephone":"88492842","name":"本科生管理办公室"}],"location":"友谊校区航空楼B座4楼联系电话：88495297","name":"机电学院 "},{"department":[{"location":"226室","job":"行政、党务、人事","telephone":"88431000","name":"学院办公室"},{"location":"234室","job":"本科教学管理","telephone":"88431006","name":"教学工作办公室"},{"location":"234室","job":"研究生教学管理","telephone":"88431008","name":"教学工作办公室"},{"location":"234室","job":"科研管理、安全保密","telephone":"88431008","name":"科研工作办公室"},{"location":"226室","job":"国际化相关工作","telephone":"88431000","name":"国际合作与交流办公室"},{"location":"246室","job":"本科生日常管理","telephone":"88431004","name":"学生工作办公室"},{"location":"246室","job":"研究生日常管理","telephone":"88431014","name":"学生工作办公室"}],"location":"长安校区力学与土木建筑学院楼联系电话：88431000","name":"力学与土木建筑学院 "},{"department":[{"location":"南229室","job":"行政、国际化、人事管理工作","telephone":"88431112","name":"学院办公室"},{"location":"南227室","job":"组织管理、国资","telephone":"88431107","name":"学院办公室"},{"location":"南237室","job":"本科教学","telephone":"88430177","name":"本科教学办公室"},{"location":"南237室","job":"研究生教学","telephone":"88431177","name":"研究生教学办公室"},{"location":"南233室","job":"科研、保密","telephone":"88431104","name":"科研、保密办公室"},{"location":"南129室","job":"研究生工作","telephone":"88431101","name":"研究生教导员办公室"},{"location":"南129室","job":"本科生工作","telephone":"88431101","name":"本科生辅导员办公室"}],"location":"长安校区动力与能源学院楼联系电话：88431112","name":"动力与能源学院 "},{"department":[{"location":"151室","job":"院办管理、党建工作、文化建设、公共资源管理、后勤保障、安全保卫、工会与离退休管理等","telephone":"88431206","name":"学院办公室"},{"location":"139室","job":"人才引进、人事劳资、职称评聘、岗位考核、财务管理等","telephone":"88431212","name":"人事秘书办公室"},{"location":"139室","job":"国际合作与交流、学院行政相关工作等","telephone":"88431203","name":"国际化兼行政秘书办公室"},{"location":"141室","job":"本科生教学管理工作","telephone":"88431207","name":"本科生教学秘书办公室"},{"location":"145室","job":"研究生教学管理工作","telephone":"88431208","name":"研究生教学秘书办公室"},{"location":"145室","job":"学科建设与发展规划、学术委员会日常工作、非全日制研究生教学管理、研究生基金管理等","telephone":"88431208","name":"学科秘书办公室"},{"location":"137室","job":"保密管理、军工科研管理、科研综合管理、知识产权管理，科研信息统计分析等","telephone":"88431219","name":"科研秘书兼保密员办公室"},{"location":"135室","job":"基础研究与国际科技合作、高新技术与产学研合作、科研平台与仪器设备共享、学术交流与学会管理等工作","telephone":"88431213","name":"科研秘书办公室"},{"location":"131室","job":"研究生思想政治教育与管理；班集体和党团建设；学风建设；就业指导和服务；学生心理健康教育以及奖助贷勤补；评优等管理工作","telephone":"88431210","name":"研究生教导员办公室"},{"location":"131室","job":"本科生思想政治教育与管理；班集体和党团建设；学风建设；就业指导和服务；学生心理健康教育以及奖助贷勤补、评优等管理工作","telephone":"88431210","name":"本科生辅导员办公室"},{"location":"127室","job":"本科生思想政治教育与管理；班集体和党团建设；学风建设；就业指导和服务；学生心理健康教育以及奖助贷勤补、评优等管理工作","telephone":"88431209","name":"本科生辅导员办公室"},{"location":"149室","job":"经费预算、审核、网报等工作","telephone":"88431211","name":"财务办公室"},{"location":"149室","job":"图书资料复印与管理、信件报刊管理、门禁卡管理等工作","telephone":"88431211","name":"资料室"}],"location":"长安校区电子信息学院楼联系电话：88431206","name":"电子信息学院 "},{"department":[{"location":"337室","job":"人事、工会、会议室管理等；党务、固定资产管理、信息化管理、新闻宣传、学院档案、公用房管理等；学科建设、学科评估、国际化工作","telephone":"88431382 88431389","name":"学院办公室"},{"location":"319室","job":"人事、工会、会议室管理等；党务、固定资产管理、信息化管理、新闻宣传、学院档案、公用房管理等；学科建设、学科评估、国际化工作","telephone":"88431397","name":"学院办公室"},{"location":"327室","job":"负责本科生教学管理工作","telephone":"88431392","name":"本科生办公室"},{"location":"309室","job":"科研管理、学术交流、保密管理","telephone":"88431385","name":"科研秘书办公室"},{"location":"311室","job":"负责研究生教学管理工作","telephone":"88431391","name":"研究生办公室"},{"location":"307室","job":"本科生思政教育与管理","telephone":"88431394","name":"本科生辅导员办公室"},{"location":"313室","job":"研究生思政教育与管理","telephone":"88431396","name":"研究生教导员办公室"}],"location":"长安校区自动化学院楼联系电话：88431389","name":"自动化学院 "},{"department":[{"location":"319室","job":"办公室行政工作","telephone":"88431510","name":"学院办公室"},{"location":"331室","job":"本科生教学工作","telephone":"88431521","name":"本科生教学办公室"},{"location":"335室","job":"研究生教学工作","telephone":"88431522","name":"研究生教学办公室"},{"location":"323室","job":"党务、人事工作","telephone":"88431519","name":"党务、人事办公室"},{"location":"327室","job":"科研保密工作","telephone":"88431520","name":"科研办公室"},{"location":"138室","job":"研究生管理工作","telephone":"88430172","name":"教导员办公室"},{"location":"148室","job":"本科生管理工作","telephone":"88430236","name":"辅导员办公室"},{"location":"146室","job":"本科生管理工作","telephone":"88430166","name":"辅导员办公室"},{"location":"307室","job":"复印、传真","telephone":"88431517","name":"复印室"},{"location":"345室","job":"学院楼值班","telephone":"88431540","name":"值班室"}],"location":"长安校区计算机学院楼联系电话：88431518","name":"计算机学院 "},{"department":[{"location":"D394室","job":"人事、外事工作","telephone":"88431656","name":"学院办公室"},{"location":"D394室","job":"科研、保密工作","telephone":"88431657","name":"学院办公室"},{"location":"D394室","job":"研究生教学管理工作","telephone":"88431654","name":"学院办公室"},{"location":"D394室","job":"本科生教学管理工作","telephone":"88431658","name":"学院办公室"},{"location":"D394室","job":"物理系、化学系秘书","telephone":"88431664","name":"学院办公室"},{"location":"C385室","job":"学生日常管理工作","telephone":"88431659","name":"辅导员办公室"},{"location":"数学 A322室","job":"—","telephone":"88431660","name":"应用数学系办"},{"location":"数学 A407室","job":"—","telephone":"88431661","name":"应用数学系机房"},{"location":"实验大楼C403室","job":"—","telephone":"88430249","name":"大学物理实验中心"},{"location":"实验大楼A403室","job":"—","telephone":"88430250","name":"普通化学实验中心"}],"location":"长安校区理学院楼联系电话：88431652","name":"理学院 "},{"department":[{"location":"209室","job":"院务协调、接待、学院网站系统管理、院务信息电子屏审核发布、学院党员组织关系接转、信访、印章管理","telephone":"88431781","name":"学院办公室"},{"location":"213室","job":"研究生教学管理","telephone":"88431782","name":"研究生教学办公室"},{"location":"217室","job":"本科生教学管理","telephone":"88431783","name":"本科生教学办公室"},{"location":"209室","job":"科研工作管理","telephone":"88431784","name":"科研办公室"},{"location":"112室","job":"本科生、研究生实验教学","telephone":"88431788","name":"实验教学中心"},{"location":"229室","job":"研究生管理","telephone":"88431786","name":"研究生教导员办公室"},{"location":"221室","job":"本科生管理","telephone":"88431791 88431785 88431793 88431792","name":"本科生辅导员办公室"}],"location":"长安校区管理学院楼联系电话：88431781","name":"管理学院 "},{"department":[{"location":"111室","job":"管理、人事工作","telephone":"88431907","name":"学院办公室"},{"location":"111室","job":"日常行政工作","telephone":"88431900","name":"学院办公室"},{"location":"111室","job":"外事、科研工作","telephone":"88431900","name":"学院办公室"},{"location":"111室","job":"党务工作","telephone":"88431912","name":"学院办公室"},{"location":"109室","job":"本科生教学工作","telephone":"88431908","name":"教学办公室"},{"location":"109室","job":"研究生教学工作","telephone":"88431909","name":"教学办公室"},{"location":"117室","job":"本科生管理工作","telephone":"88431910","name":"学生工作办公室"},{"location":"117室","job":"研究生管理工作","telephone":"88431911","name":"学生工作办公室"}],"location":"长安校区人文与经法学院楼联系电话：88431900","name":"人文与经法学院 "},{"department":[{"location":"225室","job":"人事、财务、资产管理、学院印章、会议室管理信息宣传等","telephone":"88460410 88494433-8225","name":"学院办公室"},{"location":"221室","job":"本科生教学管理","telephone":"88492572 88494433-8221","name":"本科生教学办公室"},{"location":"219室","job":"研究生教学管理","telephone":"88495953 88494433-8219","name":"研究生教学办公室"},{"location":"229室","job":"本科生、研究生思想政治教育与管理","telephone":"88494538 88494433-8229","name":"学生工作办公室"},{"location":"217室","job":"科研管理、保密管理","telephone":"88494433-8217","name":"科研办公室"},{"location":"227室","job":"国际合作、校企合作","telephone":"88494433-8227","name":"国际合作办公室"},{"location":"323室","job":"学院实验教学、各类竞赛、毕业设计、课程设计和认识实践等教学任务","telephone":"88494433-8323","name":"实验教学中心办公室"},{"location":"215室","job":"课堂教学质量把关以及对青年教师的听、评、帮工作","telephone":"88494433-8215","name":"教学指导委员会"},{"location":"223室","job":"学院值班、会议室保洁及收发信件","telephone":"88494433-8223","name":"学院值班室"}],"location":"友谊校区毅字楼2楼联系电话：88460410","name":"软件与微电子学院 "},{"department":[{"location":"106室","job":"学院办公室、人事、工会","telephone":"88460332","name":"学院办公室"},{"location":"109室","job":"教辅、实验室管理、服务","telephone":"88460205","name":"实验中心"},{"location":"107室","job":"研究生教学","telephone":"88460543","name":"综合办公室"},{"location":"107室","job":"本科生教学、科研、党务","telephone":"88460769","name":"综合办公室"}],"location":"友谊校区教学西楼联系电话：88460332","name":"生命学院 "},{"department":[{"location":"207室","job":"学院办公室、人事、党务、科研、国际化、工会等综合业务","telephone":"88430908","name":"学院办公室"},{"location":"209室","job":"研究生、本科生教务","telephone":"88430907","name":"教学办公室"},{"location":"211室","job":"学生工作","telephone":"88430922","name":"学生工作办公室"}],"location":"长安校区外国语学院楼联系电话：88430908","name":"外国语学院 "},{"department":[{"location":"教学西楼C座南107室","job":"学院行政工作","telephone":"长安校区 88430283","name":"学院办公室"},{"location":"老图书馆410室","job":"学院行政工作","telephone":"友谊校区 88494329","name":"学院办公室"},{"location":"教学西楼C座南102室","job":"学院教学工作","telephone":"长安校区 88430277 88430278","name":"教学办公室"},{"location":"老图书馆410室","job":"学院教学工作","telephone":"友谊校区 88494329","name":"教学办公室"},{"location":"教学西楼C座南1011室","job":"学院学生工作","telephone":"长安校区 88430282","name":"学生办公室"},{"location":"老图书馆410室","job":"学院学生工作","telephone":"友谊校区 88494329","name":"学生办公室"}],"location":"长安校区教学西楼C座南1楼友谊校区老图书馆410室联系电话：长安校区88430283友谊校区88494329","name":"教育实验学院 "},{"department":[{"location":"227室","job":"学院党政工作","telephone":"88431900 88431906","name":"学院办公室"}],"location":"长安校区人文经法学院楼联系电话：88431900","name":"马克思主义学院 "},{"department":[{"location":"教学东楼A座409室","job":"学院党建、行政工作","telephone":"长安校区 88431985","name":"学院办公室"},{"location":"老图书馆404室","job":"学院党建、行政工作","telephone":"友谊校区 88460907","name":"学院办公室"},{"location":"教学东楼A座409室","job":"学院教学工作","telephone":"长安校区 88431982","name":"教学事务办公室"},{"location":"老图书馆404室","job":"学院教学工作","telephone":"友谊校区 88460907","name":"教学事务办公室"},{"location":"教学东楼A座409室","job":"学院学生工作","telephone":"长安校区 88431979","name":"学生事务办公室"},{"location":"老图书馆404室","job":"学院学生工作","telephone":"友谊校区 88460907","name":"学生事务办公室"}],"location":"长安校区教学东楼A座4楼友谊校区老图书馆4楼联系电话：88431985","name":"西北工业大学伦敦玛丽女王大学工程学院 "},{"department":[{"job":"88495715-8002","telephone":"毅字楼6、7楼西","name":"光学影像分析与学习中心"},{"job":"88460204","telephone":"研究生东馆204室","name":"纳米能源材料研究中心"},{"job":"—","telephone":"研究生东馆214室","name":"大脑破译研究中心"},{"job":"—","telephone":"勇字楼1楼西","name":"计算科学研究中心"},{"job":"—","telephone":"勇字楼104室","name":"大数据交叉科学应用研究中心"},{"job":"88460816","telephone":"研究生东馆314室","name":"生态与环境保护研究中心"},{"job":"—","telephone":"研究生东馆1楼","name":"先进润滑与密封材料研究中心"}],"location":"友谊校区","name":"人才特区 "},{"department":[{"location":"A401室","job":"综合管理","telephone":"88430371","name":"办公室"},{"location":"A401室","job":"教学管理","telephone":"88430371","name":"中心教学"},{"location":"A401室","job":"党务","telephone":"88430371","name":"中心党务"},{"location":"C101室","job":"冷加工教学","telephone":"88430377","name":"冷加工教学部"},{"location":"E116室","job":"热加工教学","telephone":"88430380","name":"热加工教学部"},{"location":"A301室","job":"电子教学","telephone":"88430381","name":"电子教学部"},{"location":"A211室","job":"现代工程教学","telephone":"88430382","name":"现代工程教学部"},{"location":"C112室","job":"科研","telephone":"88430383","name":"创新部"}],"location":"长安校区工程实践训练中心联系电话：88430371","name":"工程实践训练中心 "},{"department":[{"location":"104室","job":"人事、行政管理","telephone":"88493539","name":"办公室"},{"location":"201室","job":"教学管理","telephone":"88460659","name":"教学管理部"},{"location":"208室","job":"科研管理","telephone":"—","name":"科研与学科发展部"},{"location":"301室","job":"群体管理","telephone":"88494023","name":"竞赛群体管理部"},{"location":"301室","job":"高水平队管理","telephone":"88494023","name":"高水平队管理部"},{"location":"田径场主席台后","job":"体育场馆管理","telephone":"友谊校区 88491776","name":"体育场馆管理中心办公室"},{"location":"综合楼 201室","job":"体育场馆管理","telephone":"长安校区 88431173","name":"体育场馆管理中心办公室"}],"location":"友谊校区翱翔训练馆1楼—3楼联系电话：88493539","name":"体育部 "},{"department":[{"location":"303室","job":"行政与综合管理、档案查询、学费收缴","telephone":"88493731 88460200 88460535","name":"学院办公室"},{"location":"311室","job":"报名咨询、合作办学等","telephone":"88494517 88492321","name":"招生办公室"},{"location":"420室","job":"教务教学管理等","telephone":"88460284 88460442","name":"教务部"},{"location":"402室","job":"非学历教育培训","telephone":"88493102 88494142","name":"培训中心"},{"location":"214室","job":"出国留学服务等","telephone":"88494524","name":"国际合作部"},{"location":"412室","job":"教学资源建设技术支持服务","telephone":"88460237 88495471","name":"技术资源中心"},{"location":"404室","job":"西安地区学生报名、管理等","telephone":"88495096 88460719","name":"直属学习中心"},{"location":"415室","job":"评估管理等","telephone":"88460523","name":"评估与发展研究中心"}],"location":"友谊校区西苑办公楼联系电话：88493731","name":"继续教育学院、网络教育学院 "},{"department":[{"location":"图书馆 1楼南侧","job":"人事、工程硕士管理、保密教育培训、学院印章、会议室管理","telephone":"88495027","name":"学院办公室"},{"location":"图书馆 1楼南侧","job":"本科生、研究生部分教学管理工作","telephone":"88460540","name":"教学办公室"}],"location":"友谊校区图书馆1楼南侧联系电话：88495027","name":"国家保密学院 "},{"department":[{"location":"94室","job":"日常行政管理工作","telephone":"88430208","name":"办公室"},{"location":"95室","job":"日常教学管理工作","telephone":"88430220","name":"教学办公室"}],"location":"长安校区启真楼4楼联系电话：88430220","name":"艺术教育中心 "},{"department":[{"location":"梅苑北楼 304、305、306室","job":"公文审核、督办管理、校务协调、校务接待、印信管理","telephone":"85603158","name":"学院办公室"},{"location":"梅苑北楼316室","job":"党务工作","telephone":"85603116","name":"党委工作部"},{"location":"梅苑北楼207室","job":"教学管理","telephone":"85603266","name":"教务科研部"},{"location":"培德楼104室","job":"学生、保卫工作","telephone":"85603179","name":"学生及保卫部"},{"location":"明德楼215室明德楼209室","job":"招生、培训工作","telephone":"85603066 85603222","name":"招生及培训部"},{"location":"图书馆403室","job":"财务工作","telephone":"85603288","name":"财务资产部"},{"location":"梅苑北楼204室","job":"人事关系","telephone":"85603129","name":"人力资源部"},{"location":"梅苑北楼518室","job":"后勤保障、基建工作","telephone":"85603106","name":"后勤工作部"},{"location":"明德楼206室","job":"图书管理、借阅工作","telephone":"85603118","name":"图书馆"}],"location":"西工大沣河校区联系电话：85603158","name":"明德学院（独立学院） "},{"department":[{"location":"沣惠南路34号","job":"办公室综合业务","telephone":"88451020","name":"公司办公室"},{"location":"沣惠南路34号","job":"科技计划","telephone":"88451000-8108","name":"科技计划部"},{"location":"沣惠南路34号","job":"外贸、民品","telephone":"88451000-8106","name":"外贸与民品部"},{"location":"沣惠南路34号","job":"人力资源","telephone":"88451000-8018","name":"人力资源部"},{"location":"沣惠南路34号","job":"财务、审计","telephone":"88455760","name":"财务审计部"},{"location":"沣惠南路34号","job":"条件保障","telephone":"88451000-8216","name":"条件保障部"},{"location":"沣惠南路34号","job":"保密","telephone":"88451000-8068","name":"保密办公室"}],"location":"西安市沣惠南路34号联系电话：88451020","name":"三六五研究所 "},{"department":[{"location":"402室","job":"行政","telephone":"88495528","name":"总经理办公室"},{"location":"401室","job":"党务","telephone":"88491138","name":"党总支书记办公室"},{"location":"403室","job":"办公事务","telephone":"88491100","name":"办公室"},{"location":"4楼大厅","job":"党务工作","telephone":"88494062","name":"总支秘书"},{"location":"406室","job":"成果转化","telephone":"88492891","name":"项目部"},{"location":"404室","job":"成果转化","telephone":"88460811","name":"项目部"},{"location":"410室","job":"企业管理","telephone":"88494475","name":"企业管理部"},{"location":"408室","job":"财务管理","telephone":"88460858","name":"财务部"},{"location":"409室","job":"财务管理","telephone":"88491457","name":"财务部"},{"location":"408室","job":"财务审计","telephone":"88460858","name":"审计部"},{"location":"411室","job":"财务审计","telephone":"88460306","name":"审计部"},{"location":"4楼大厅","job":"创新科技大楼运营","telephone":"88460855","name":"运管部"},{"location":"201室","job":"创新科技大楼运营","telephone":"创新大楼管理部 88493000","name":"运管部"}],"location":"友谊校区物资楼2楼、4楼联系电话：88494062","name":"资产经营公司 "},{"department":[{"location":"226室","job":"市校两地综合业务","telephone":"88460825","name":"办公室"}],"location":"友谊校区研究生东馆2楼联系电话：88460825","name":"深圳研究院 "},{"department":[{"job":"81113262-832","telephone":"锦业一路52号宝德云谷国际A座8楼","name":"综合办公室"},{"job":"81113262-812","telephone":"锦业一路52号宝德云谷国际A座8楼","name":"财务计划处"},{"job":"81113262-822","telephone":"锦业一路52号宝德云谷国际A座8楼","name":"资产运营处"}],"location":"锦业一路52号宝德云谷国际A座8楼联系电话：81113262","name":"西北工业技术研究院 "},{"department":[{"location":"103室","job":"人事、财务、资产、科研管理、接待、用印等","telephone":"88460896","name":"综合办公室"}],"location":"友谊校区研究生东馆1楼联系电话：88460896","name":"无人系统发展战略研究中心 "},{"department":[{"location":"104室","job":"人事、财务、资产、科研管理、接待、用印等","telephone":"88460895","name":"综合办公室"}],"location":"友谊校区研究生东馆1楼联系电话：88460895","name":"无人系统技术研究院 "},{"department":[{"location":"101室","job":"干部人事档案、学生档案管理","telephone":"88492473","name":"人事档案室"},{"location":"103室","job":"档案借阅利用、办理出国成绩单（含教学、外事档案管理）","telephone":"88493280","name":"接待室"},{"location":"104室","job":"科技档案管理","telephone":"88460742","name":"科技档案室"},{"location":"107室","job":"校史馆管理（含声像、实物、人物档案管理）","telephone":"88491542","name":"校史办公室"},{"location":"111室","job":"文书档案（含财会档案）、设备档案管理","telephone":"88493679","name":"综合档案室一"},{"location":"113室","job":"基建档案管理、档案信息化、档案验收业务","telephone":"88460849","name":"综合档案室二"}],"location":"友谊校区图书馆1楼联系电话：88493159","name":"档案馆（校史馆） "},{"department":[{"location":"友谊校区 图书馆东馆北 205室","job":"读者意见的收集与回复","telephone":"88492361","name":"办公室"},{"location":"友谊校区 图书馆东馆北 110室","job":"数据库服务平台维护、电子论文提交审核、图书馆网络与现代化设备维护、检索中心管理、一卡通读者数据转入","telephone":"88493632","name":"信息技术部"},{"location":"友谊校区 图书馆东馆北 111室","job":"查收查引、代查代检、科技查新、学科服务、教学与培训","telephone":"88492928","name":"信息咨询与发展研究部"},{"location":"友谊校区 图书馆东馆南 103室","job":"文献资源订购、新书借阅绿色通道、资源荐购、接受书刊捐赠、举办专题书展","telephone":"88493504","name":"文献建设部"},{"location":"图书馆东馆 1楼总服务台","job":"图书借阅、解答咨询、馆际互借、文献传递、查收查引；学生离校手续办理；出国审批单盖章；职工退休单盖章","telephone":"友谊校区 88493916","name":"读者服务部"},{"location":"长安校区图书馆1楼总服务台","job":"图书借阅、解答咨询、馆际互借、文献传递、查收查引；学生离校手续办理；出国审批单盖章；职工退休单盖章","telephone":"长安校区 88430780","name":"读者服务部"}],"location":"图书馆联系电话：88492361","name":"图书馆 "},{"department":[{"location":"后楼9315室","job":"综合管理、投诉接待","telephone":"88493471","name":"办公室"},{"location":"后楼1楼","job":"预防保健管理","telephone":"88460634","name":"防保科"},{"location":"前楼大厅","job":"学生医保、职工医保管理","telephone":"88492549","name":"医保办公室"},{"location":"后楼9311室","job":"医疗业务管理","telephone":"88492327","name":"医务科"},{"location":"后楼9301室","job":"医保报销打款、医疗报销结算","telephone":"88491099","name":"财务科"},{"location":"前楼8109室","job":"急诊急救、出诊服务","telephone":"88493920","name":"急诊科"},{"location":"长安校区","job":"急诊急救、出诊服务","telephone":"88430120","name":"急诊科"},{"location":"长安校区","job":"相关业务","telephone":"884311938106","name":"口腔科"},{"location":"长安校区","job":"相关业务","telephone":"884311938011","name":"外科"},{"location":"长安校区","job":"相关业务","telephone":"884311938100","name":"检验科"},{"location":"长安校区","job":"相关业务","telephone":"88431193- 8009 88431194","name":"收费室"},{"location":"长安校区","job":"相关业务","telephone":"884311938002","name":"药房"},{"location":"长安校区","job":"相关业务","telephone":"88430106","name":"防保科"}],"location":"校医院联系电话：友谊校区88493471","name":"校医院 "},{"department":[{"job":"88493099","telephone":"西苑后勤办公室217室","name":"办公室"},{"job":"88493642","telephone":"西苑后勤办公室224室","name":"财务部"},{"job":"88491582","telephone":"西苑后勤办公室209室","name":"人力资源部"},{"job":"88491234","telephone":"角楼一站式服务大厅","name":"24小时服务电话"}],"location":"友谊校区西苑联系电话：88493099","name":"后勤产业集团 "},{"department":[{"location":"友谊校区爱生楼西南角2楼","job":"公司日常综合办公事务","telephone":"88492420","name":"办公室"},{"location":"长安校区综合楼B端2楼","job":"公司日常综合办公事务","telephone":"88430319","name":"办公室"},{"location":"星天苑北餐3楼","job":"餐饮接待各类酒席","telephone":"88430326","name":"长安校区教工餐厅"},{"location":"星天苑南餐3楼","job":"长安校区教职工餐饮","telephone":"88430303","name":"长安校区教工餐厅"},{"location":"健翔楼旁正禾小厨2楼","job":"北苑餐饮接待各类酒席","telephone":"88493636","name":"友谊校区食尚厨房"},{"location":"西苑家属区西北角","job":"西苑教职工餐饮及小型接待","telephone":"88492543","name":"友谊校区西苑餐厅"}],"location":"","name":"饮食服务公司 "},{"department":[{"location":"星天苑C座 143室","job":"公司日常事务","telephone":"88430316","name":"长安物业办公室"},{"location":"星天苑C座 137室","job":"水暖电、绿化、保洁","telephone":"88430914","name":"长安物业24小时服务电话"},{"location":"教学电力大楼3楼","job":"公司日常事务","telephone":"88492381","name":"友谊物业办公室"},{"location":"教学电力大楼3楼","job":"水暖电、绿化、保洁","telephone":"88491244","name":"友谊物业24小时服务电话"},{"location":"友谊校区 西苑后勤办公楼3楼","job":"公司日常事务","telephone":"88493834","name":"正禾物业办公室"},{"location":"友谊校区 东门内10米 处地热水泵房院内","job":"家庭保洁、洗衣服务等专项物业保障工作","telephone":"88460567","name":"正禾物业正禾物业24小时服务电话"}],"location":"","name":"物业中心 "},{"department":[{"location":"正禾宾馆西3楼","job":"公司日常事务","telephone":"88494363-9306","name":"办公室"},{"location":"正禾宾馆前台东1楼","job":"正禾宾馆住宿、餐饮、会议、礼品、前台接待服务","telephone":"88491957 （宾馆前台） 88495034 （销售部）","name":"销售部"},{"location":"正禾宾馆东2楼","job":"宾馆餐厅订餐","telephone":"88494343","name":"餐饮部"},{"location":"国际会议中心正禾宾馆西3楼","job":"会议中心的会场预订及相关服务","telephone":"88492426 88494360-9208","name":"会议中心"}],"location":"","name":"旅游公司 "},{"department":[{"location":"友谊校区运输服务公司西侧2楼","job":"公司日常事务","telephone":"88460217","name":"办公室"},{"location":"长安校区 星天苑A座 102室","job":"运输服务公司车队","telephone":"88430122","name":"班车运行"},{"location":"友谊校区运输服务公司西侧2楼","job":"运输服务公司车队","telephone":"88492458","name":"车辆运输服务"}],"location":"","name":"运输公司 "},{"department":[{"location":"友谊校区爱生楼2楼","job":"公司日常事务、全校大集体工管理工作","telephone":"88494031","name":"办公室"},{"location":"友谊校区正禾宾馆东北侧","job":"食品、日用品、办公用品等团购和零售业务","telephone":"88460444办公室 88460600服务台","name":"友谊校区正禾超市"},{"location":"长安校区星天苑南餐厅1楼","job":"食品、日用品、办公用品等团购和零售业务","telephone":"88430307办公室 88430310服务台","name":"长安校区正禾超市"}],"location":"","name":"正禾商贸公司 "},{"department":[{"location":"友谊校区诚字楼东北角","job":"日常服务","telephone":"88493889","name":"办公室"},{"location":"友谊校区诚字楼东北角","job":"数字电视电话报修","telephone":"88495572","name":"24小时服务电话"},{"location":"长安校区数字化大楼西北角1楼","job":"校园卡业务受理","telephone":"88430000 88430300","name":"一站式服务大厅"},{"location":"友谊校区角楼一站式服务大厅","job":"校园卡业务受理","telephone":"88495600","name":"一站式服务大厅"}],"location":"","name":"后勤服务中心 "},{"department":[{"location":"友谊校区诚字楼102室","job":"办公室综合业务","telephone":"88460747","name":"办公室"},{"location":"长安校区实验大楼103室","job":"测试业务","telephone":"88430850","name":"技术员室"}],"location":"友谊校区诚字楼1楼联系电话：88460747","name":"分析测试中心 "},{"department":[{"location":"行政、人事管理","job":"办公室","telephone":"行政、人事管理","name":"综合部办公室"},{"location":"出版业务管理","job":"总编室","telephone":"出版业务管理","name":"综合部总编室"},{"location":"88460340","job":"图书、音像出版","telephone":"图书、音像出版","name":"营销策划部营销策划部"},{"location":"88493675","job":"图书编辑","telephone":"图书编辑","name":"编辑部编辑部"},{"location":"88491746","job":"排版、描图、试卷印刷","telephone":"排版、描图、试卷印刷","name":"印制部印制部"},{"location":"联系电话","job":"主要业务","telephone":"主要业务","name":"科室名称科室名称"},{"location":"88494373","job":"图书、教材采购及供应","telephone":"图书、教材采购及供应","name":"发行保障部发行保障部"},{"location":"88494781","job":"财务管理","telephone":"财务管理","name":"财务部财务部"}],"location":"友谊校区书海楼联系电话：88492314","name":"出版社 "},{"department":[{"location":"316室","job":"出具证明、审核盖章","telephone":"88492401","name":"办公室"},{"location":"105室","job":"教务、教学、考务","telephone":"88460471","name":"教务处"},{"location":"108室","job":"德育、纪律工作","telephone":"88460263","name":"政教处"},{"location":"206室","job":"后勤、工程、维修等","telephone":"88460298","name":"总务处"},{"location":"213室","job":"团工作日常管理","telephone":"88460534","name":"团委"}],"location":"西工大附中高中部行政楼联系电话：88492401","name":" 附中（高中部）"},{"department":[{"location":"2号楼1楼","job":"出具证明、审核盖章","telephone":"88460470","name":"办公室"},{"location":"2号楼1楼","job":"教务、教学、考务","telephone":"88494872","name":"教务处"},{"location":"2号楼1楼","job":"团工作日常管理","telephone":"88460285","name":"团委"},{"location":"东侧平房","job":"德育、纪律工作","telephone":"88493276","name":"政教处"},{"location":"东侧平房","job":"后勤、工程、维修等","telephone":"88492402","name":"总务处"}],"location":"西工大附中初中部2号楼1楼联系电话：88460470","name":"附中（初中部）"},{"department":[{"location":"教学南楼1楼","job":"学籍、教务管理","telephone":"88460670","name":"教导处"},{"location":"教学南楼1楼","job":"财务、总务管理","telephone":"88494238","name":"财务室"},{"location":"220室","job":"午餐午休管理","telephone":"88493096","name":"食堂办"},{"location":"东楼2楼","job":"常见病处理、传染病预防","telephone":"88492406—209","name":"医务室"},{"location":"—","job":"门卫管理","telephone":"88460671","name":"保安室"}],"location":"教学南楼1楼联系电话：88460322","name":"附小 "},{"department":[{"location":"幼儿园南1楼","job":"园务协调、园务接待、印信管理","telephone":"88493741","name":"办公室"},{"location":"幼儿园南1楼","job":"招生工作","telephone":"88493741","name":"办公室"},{"location":"幼儿园南1楼","job":"财务管理","telephone":"88494340","name":"财会室"},{"location":"幼儿园北3楼","job":"教学管理","telephone":"88494714","name":"保教办公室"},{"location":"幼儿园南1楼","job":"卫生保健及幼儿膳食管理","telephone":"88494275","name":"卫生室"},{"location":"幼儿园南1楼","job":"门卫安全","telephone":"88493891","name":"传达室"}],"location":"幼儿园联系电话：88493741","name":"幼儿园 "},{"department":[{"location":"123室","job":"国防生培养总体工作、国防生军政理论课、国防生报","telephone":"88494989","name":"选培办"},{"location":"119室","job":"国防奖学金的发放及日常管理","telephone":"88494990","name":"选培办"},{"location":"121室","job":"内勤","telephone":"88460865","name":"选培办"},{"location":"127室","job":"国防生选拔、军事训练、日常管理","telephone":"88460853","name":"选培办"}],"location":"友谊校区学生宿舍4号楼（即国防生楼）联系电话：88494990","name":"解放军驻西工大选培办 "}],"result":"ok"}